{
  "users": [
    {
      "uid": "test-001",
      "name": "김교수",
      "employeeNumber": "2020-00101",
      "department": "공과대학 컴퓨터공학과",
      "role": "driver",
      "isVerified": true,
      "vehicle": { "plateNumber": "대전 12가 3457", "model": "그랜저", "color": "화이트", "seatCapacity": 4 },
      "savedAddresses": [
        { "name": "대전 유성구 도안동 트리풀시티", "lat": 36.3500, "lng": 127.3300 },
        { "name": "충남대학교 공과대학 권역", "lat": 36.3680, "lng": 127.3460 }
      ]
    },
    {
      "uid": "test-002",
      "name": "박주무관",
      "employeeNumber": "2019-00205",
      "department": "자연과학대학 행정실",
      "role": "driver",
      "isVerified": true,
      "vehicle": { "plateNumber": "대전 34나 7890", "model": "투싼", "color": "은색", "seatCapacity": 5 },
      "savedAddresses": [
        { "name": "대전 서구 둔산동 타임월드", "lat": 36.3510, "lng": 127.3780 },
        { "name": "충남대학교 자연과학대학 권역", "lat": 36.3675, "lng": 127.3450 }
      ]
    },
    {
      "uid": "test-003",
      "name": "이연구원",
      "employeeNumber": "2022-00312",
      "department": "학생처 장학팀",
      "role": "passenger",
      "isVerified": true,
      "savedAddresses": [
        { "name": "대전 유성구 봉명동 유성온천역", "lat": 36.3550, "lng": 127.3400 },
        { "name": "충남대학교 대학본부 권역", "lat": 36.3672, "lng": 127.3430 }
      ]
    },
    {
      "uid": "test-004",
      "name": "최조교",
      "employeeNumber": "2023-00418",
      "department": "농업생명과학대학 식물자원학과",
      "role": "both",
      "isVerified": true,
      "vehicle": { "plateNumber": "대전 56다 1234", "model": "아반떼", "color": "검정", "seatCapacity": 4 },
      "savedAddresses": [
        { "name": "대전 유성구 궁동 충대앞", "lat": 36.3620, "lng": 127.3500 },
        { "name": "충남대학교 농생대 권역", "lat": 36.3690, "lng": 127.3400 }
      ]
    },
    {
      "uid": "test-005",
      "name": "정행정관",
      "employeeNumber": "2018-00520",
      "department": "의과대학 교학팀",
      "role": "passenger",
      "isVerified": true,
      "savedAddresses": [
        { "name": "대전 중구 대흥동 서대전역", "lat": 36.3230, "lng": 127.4040 },
        { "name": "충남대학교 대학본부 권역", "lat": 36.3672, "lng": 127.3430 }
      ]
    },
    {
      "uid": "test-006",
      "name": "한기사",
      "employeeNumber": "2021-00615",
      "department": "공과대학 전기공학과",
      "role": "driver",
      "isVerified": true,
      "vehicle": { "plateNumber": "대전 78라 5678", "model": "쏘나타", "color": "파랑", "seatCapacity": 4 },
      "savedAddresses": [
        { "name": "대전 유성구 반석동", "lat": 36.3880, "lng": 127.3200 },
        { "name": "충남대학교 공과대학 권역", "lat": 36.3680, "lng": 127.3460 }
      ]
    },
    {
      "uid": "test-007",
      "name": "윤사서",
      "employeeNumber": "2020-00708",
      "department": "중앙도서관 자료실",
      "role": "passenger",
      "isVerified": true,
      "savedAddresses": [
        { "name": "대전 서구 관저동", "lat": 36.3350, "lng": 127.3350 },
        { "name": "충남대학교 대학본부 권역", "lat": 36.3672, "lng": 127.3430 }
      ]
    },
    {
      "uid": "test-008",
      "name": "송교수",
      "employeeNumber": "2017-00803",
      "department": "자연과학대학 물리학과",
      "role": "both",
      "isVerified": true,
      "vehicle": { "plateNumber": "대전 90마 9012", "model": "K5", "color": "회색", "seatCapacity": 4 },
      "savedAddresses": [
        { "name": "세종시 나성동", "lat": 36.5000, "lng": 127.0000 },
        { "name": "충남대학교 자연과학대학 권역", "lat": 36.3675, "lng": 127.3450 }
      ]
    },
    {
      "uid": "test-009",
      "name": "강직원",
      "employeeNumber": "2024-00910",
      "department": "대학본부 총무과",
      "role": "passenger",
      "isVerified": true,
      "savedAddresses": [
        { "name": "대전 동구 판암동", "lat": 36.3400, "lng": 127.4500 },
        { "name": "충남대학교 대학본부 권역", "lat": 36.3672, "lng": 127.3430 }
      ]
    },
    {
      "uid": "test-010",
      "name": "조교수",
      "employeeNumber": "2019-01005",
      "department": "농업생명과학대학 원예학과",
      "role": "driver",
      "isVerified": true,
      "vehicle": { "plateNumber": "대전 23바 3456", "model": "EV6", "color": "초록", "seatCapacity": 4 },
      "savedAddresses": [
        { "name": "대전 유성구 신성동", "lat": 36.3750, "lng": 127.3550 },
        { "name": "충남대학교 농생대 권역", "lat": 36.3690, "lng": 127.3400 }
      ]
    }
  ],
  "routes": [
    {
      "id": "route-001",
      "driverId": "test-001",
      "driverName": "김교수",
      "departureTime": "08:30",
      "availableSeats": 3,
      "sourceName": "대전 유성구 도안동 트리풀시티",
      "sourceCoord": { "lat": 36.3500, "lng": 127.3300 },
      "destName": "충남대학교 공과대학 권역",
      "destCoord": { "lat": 36.3680, "lng": 127.3460 },
      "path": [
        [36.3500, 127.3300], [36.3530, 127.3330], [36.3550, 127.3360],
        [36.3580, 127.3390], [36.3610, 127.3410], [36.3640, 127.3430],
        [36.3660, 127.3445], [36.3680, 127.3460]
      ],
      "status": "active"
    },
    {
      "id": "route-002",
      "driverId": "test-002",
      "driverName": "박주무관",
      "departureTime": "09:00",
      "availableSeats": 4,
      "sourceName": "대전 서구 둔산동 타임월드",
      "sourceCoord": { "lat": 36.3510, "lng": 127.3780 },
      "destName": "충남대학교 자연과학대학 권역",
      "destCoord": { "lat": 36.3675, "lng": 127.3450 },
      "path": [
        [36.3510, 127.3780], [36.3530, 127.3700], [36.3560, 127.3620],
        [36.3590, 127.3550], [36.3620, 127.3500], [36.3650, 127.3470],
        [36.3675, 127.3450]
      ],
      "status": "active"
    },
    {
      "id": "route-003",
      "driverId": "test-006",
      "driverName": "한기사",
      "departureTime": "08:00",
      "availableSeats": 3,
      "sourceName": "대전 유성구 반석동",
      "sourceCoord": { "lat": 36.3880, "lng": 127.3200 },
      "destName": "충남대학교 공과대학 권역",
      "destCoord": { "lat": 36.3680, "lng": 127.3460 },
      "path": [
        [36.3880, 127.3200], [36.3830, 127.3260], [36.3780, 127.3320],
        [36.3740, 127.3370], [36.3710, 127.3410], [36.3680, 127.3460]
      ],
      "status": "active"
    },
    {
      "id": "route-004",
      "driverId": "test-010",
      "driverName": "조교수",
      "departureTime": "08:45",
      "availableSeats": 3,
      "sourceName": "대전 유성구 신성동",
      "sourceCoord": { "lat": 36.3750, "lng": 127.3550 },
      "destName": "충남대학교 농생대 권역",
      "destCoord": { "lat": 36.3690, "lng": 127.3400 },
      "path": [
        [36.3750, 127.3550], [36.3740, 127.3510], [36.3720, 127.3470],
        [36.3710, 127.3440], [36.3700, 127.3420], [36.3690, 127.3400]
      ],
      "status": "active"
    }
  ]
}
